[
  {
    "id": 3,
    "name": "Aquarium of Guadeloupe, Guadeloupe",
    "lat": 16.2206519,
    "lng": -61.5230288
  },
  {
    "id": 4,
    "name": "Cascade aux Ecrevisses, Guadeloupe",
    "lat": 16.1789129,
    "lng": -61.6809609
  },
  {
    "id": 5,
    "name": "Fort Fleur d'Épée, Guadeloupe",
    "lat": 16.2169304,
    "lng": -61.5129364
  },
  {
    "id": 6,
    "name": "ECOMUSEE CREOLEART OF GUADELOUPE AND DREAMS OF VILLA, Guadeloupe",
    "lat": 16.3124734,
    "lng": -61.7054634
  },
  {
    "id": 7,
    "name": "Museum costumes and traditions, Guadeloupe",
    "lat": 16.2097636,
    "lng": -61.4790638
  },
  {
    "id": 8,
    "name": "Jardin Botanique de Deshaies, Guadeloupe",
    "lat": 16.2991842,
    "lng": -61.7976432
  },
  {
    "id": 9,
    "name": "Plage de Grande Anse, Guadeloupe",
    "lat": 16.3221395,
    "lng": -61.7886034
  },
  {
    "id": 10,
    "name": "Fort Delgrès, Guadeloupe",
    "lat": 15.987812,
    "lng": -61.7243677
  },
  {
    "id": 11,
    "name": "Sculpture artistique, Guadeloupe",
    "lat": 16.2239845,
    "lng": -61.5261854
  },
  {
    "id": 12,
    "name": "St. Anne Market, Guadeloupe",
    "lat": 16.2242383,
    "lng": -61.3845464
  },
  {
    "id": 13,
    "name": "Pointe Allègre, Guadeloupe",
    "lat": 16.3617922,
    "lng": -61.7438846
  },
  {
    "id": 14,
    "name": "Restaurant Les Colibris, Guadeloupe",
    "lat": 16.2581168,
    "lng": -61.5221207
  },
  {
    "id": 15,
    "name": "BUNBO, Guadeloupe",
    "lat": 16.2391914,
    "lng": -61.5670872
  },
  {
    "id": 16,
    "name": "Le combava, Guadeloupe",
    "lat": 16.2405353,
    "lng": -61.5547241
  },
  {
    "id": 17,
    "name": "Le Comptoir des Saveurs Jarry, Guadeloupe",
    "lat": 16.2376369,
    "lng": -61.5673074
  },
  {
    "id": 18,
    "name": "KARA tasty experiences, Guadeloupe",
    "lat": 16.2364314,
    "lng": -61.6575426
  },
  {
    "id": 19,
    "name": "La Cantina, Guadeloupe",
    "lat": 16.2195303,
    "lng": -61.565522
  },
  {
    "id": 20,
    "name": "Restaurant le Bordeaux, Guadeloupe",
    "lat": 16.2413581,
    "lng": -61.612037
  },
  {
    "id": 21,
    "name": "Caribbean Social Agency, Guadeloupe",
    "lat": 16.2295509,
    "lng": -61.6251799
  },
  {
    "id": 22,
    "name": "Pharmacie la ROSIERE, Guadeloupe",
    "lat": 16.2406321,
    "lng": -61.6643745
  },
  {
    "id": 23,
    "name": "L Exotic brefort Lamentin guadeloupe , Guadeloupe",
    "lat": 16.2606482,
    "lng": -61.6504672
  }
]